circuitRef,name,location,country,lat,lon
silverstone,Silverstone Circuit,Silverstone,UK,52.0786,-1.01694
monaco,Circuit de Monaco,Monte-Carlo,Monaco,43.7347,7.42056
indianapolis,Indianapolis Motor Speedway,Indianapolis,USA,39.795,-86.2347
bremgarten,Circuit Bremgarten,Bern,Switzerland,46.9589,7.40194
spa,Circuit de Spa-Francorchamps,Spa,Belgium,50.4372,5.97139
reims,Reims-Gueux,Reims,France,49.2542,3.93083
monza,Autodromo Nazionale di Monza,Monza,Italy,45.6156,9.28111
